{ "_id" : { "$oid" : "52e5f09e8f3d99e1046abcba" }, "Prop_ID" : "X002", "Name" : "Bronx Park", "Location" : "Bronx Park East and Brady Ave.", "Phone" : "(718) 430-1821", "Courts" : 6, "Indoor_Outdoor" : "Outdoor", "Tennis_Type" : "Hard", "Accessible" : "N", "lat" : 40.8511, "lon" : -73.8704 }
{ "_id" : { "$oid" : "52e5f09e8f3d99e1046abcbb" }, "Prop_ID" : "X010", "Name" : "Crotona Park", "Location" : "E. 173d St. and Crotona Ave.", "Phone" : "(718) 294-2516", "Courts" : 20, "Indoor_Outdoor" : "Outdoor", "Tennis_Type" : "Hard", "Accessible" : "Y", "lat" : 40.8394, "lon" : -73.8951 }
{ "_id" : { "$oid" : "52e5f09e8f3d99e1046abcbc" }, "Prop_ID" : "X196", "Name" : "Haffen Park", "Location" : "Hammersley, Ely, and Gunther Aves.", "Phone" : "(718) 379-8347", "Courts" : 6, "Indoor_Outdoor" : "Outdoor", "Tennis_Type" : "Hard", "Accessible" : "Y", "lat" : 40.874, "lon" : -73.84 }
{ "_id" : { "$oid" : "52e5f09e8f3d99e1046abcbd" }, "Prop_ID" : "X039", "Name" : "Pelham Bay Park", "Location" : "Bruckner Blvd. and Middletown Rd.", "Phone" : "(718) 885-3442", "Courts" : 10, "Indoor_Outdoor" : "Outdoor", "Tennis_Type" : "Hard", "Accessible" : "N" }
{ "_id" : { "$oid" : "52e5f09e8f3d99e1046abcbe" }, "Prop_ID" : "X201", "Name" : "Seton Park", "Location" : "W. 232nd to 235th St., Palisade and Independence Aves.", "Phone" : "(718) 601-6044", "Courts" : 6, "Indoor_Outdoor" : "Outdoor", "Tennis_Type" : "Hard", "Accessible" : "N", "lat" : 40.8853, "lon" : -73.9164 }
{ "_id" : { "$oid" : "52e5f09e8f3d99e1046abcbf" }, "Prop_ID" : "X044", "Name" : "St. James Park", "Location" : "Jerome Ave. and E. 193d St.", "Phone" : "(718) 822-4271", "Courts" : 8, "Indoor_Outdoor" : "Outdoor", "Tennis_Type" : "Hard", "Accessible" : "Y", "Info" : "Lessons Offered", "lat" : 40.8656, "lon" : -73.8972 }
{ "_id" : { "$oid" : "52e5f09e8f3d99e1046abcc0" }, "Prop_ID" : "X045", "Name" : "St. Mary's Park", "Location" : "E. 145 St. and St. Ann's Ave.", "Phone" : "(718) 402-5161", "Courts" : 2, "Indoor_Outdoor" : "Outdoor", "Tennis_Type" : "Hard", "Accessible" : "Y" }
{ "_id" : { "$oid" : "52e5f09e8f3d99e1046abcc1" }, "Prop_ID" : "X092", "Name" : "Van Cortlandt Park", "Location" : "Stadium - W. 242nd St. and Broadway", "Phone" : "(718) 549-6494", "Courts" : 10, "Indoor_Outdoor" : "Outdoor", "Tennis_Type" : "Hard", "Accessible" : "Y" }
{ "_id" : { "$oid" : "52e5f09e8f3d99e1046abcc2" }, "Prop_ID" : "X092", "Name" : "Van Cortlandt Park", "Location" : "Woodlawn, W. 233rd St. & Jerome Ave.", "Phone" : "(718) 549-6494", "Courts" : 8, "Indoor_Outdoor" : "Outdoor", "Tennis_Type" : "Hard", "Accessible" : "Y" }
{ "_id" : { "$oid" : "52e5f09e8f3d99e1046abcc3" }, "Prop_ID" : "X104", "Name" : "Williamsbridge Oval", "Location" : "E. 208th St. and Bainbridge Ave.", "Phone" : "(718) 654-1851", "Courts" : 8, "Indoor_Outdoor" : "Outdoor", "Tennis_Type" : "Hard", "Accessible" : "N", "lat" : 40.8782, "lon" : -73.8777 }
{ "_id" : { "$oid" : "52e5f09e8f3d99e1046abcc4" }, "Prop_ID" : "X039", "Name" : "Orchard Beach", "Location" : "1 Orchard Beach Road", "Phone" : "(718) 885-3247", "Courts" : 4, "Indoor_Outdoor" : "Outdoor", "Tennis_Type" : "Hard", "Accessible" : "N" }
{ "_id" : { "$oid" : "52e5f09e8f3d99e1046abcc5" }, "Prop_ID" : "B007", "Name" : "Bensonhurst Park", "Location" : "Cropsey Ave. & Bay Pkwy.", "Phone" : "(718) 946-5048", "Courts" : 8, "Indoor_Outdoor" : "Outdoor", "Tennis_Type" : "Hard", "Accessible" : "N", "Info" : "Closed due to the effects of Hurricane Sandy" }
{ "_id" : { "$oid" : "52e5f09e8f3d99e1046abcc6" }, "Prop_ID" : "B007", "Name" : "Breakpoint Tennis Center in Bensonhurst", "Location" : "9000 Bay Parkway (off Belt Parkway)", "Phone" : "(718) 372-6878", "Courts" : 8, "Indoor_Outdoor" : "Indoor", "Tennis_Type" : "Hard", "Accessible" : "N", "Info" : "Closed due to the effects of Hurricane Sandy. [Lessons offered. Courts will not be available for permit from October 18 through April 27. Please call for more information.]" }
{ "_id" : { "$oid" : "52e5f09e8f3d99e1046abcc7" }, "Prop_ID" : "B215", "Name" : "Decatur Playground", "Location" : "Decatur bet. Summer and Lewis Aves.", "Phone" : "(718) 493-7612", "Courts" : 1, "Indoor_Outdoor" : "Outdoor", "Tennis_Type" : "Hard", "Accessible" : "N", "lat" : 40.6814, "lon" : -73.9363 }
{ "_id" : { "$oid" : "52e5f09e8f3d99e1046abcc8" }, "Prop_ID" : "B028", "Name" : "Lucille Ferrera Tennis Courts (Dyker Beach Park)", "Location" : "Cropsey Avenue, Bay 8th Street and Poly Place", "Phone" : "(718) 259-4016", "Courts" : 9, "Indoor_Outdoor" : "Outdoor", "Tennis_Type" : "Hard", "Accessible" : "Y", "Info" : "Lessons Offered", "lat" : 40.6063, "lon" : -74.0166 }
{ "_id" : { "$oid" : "52e5f09e8f3d99e1046abcc9" }, "Prop_ID" : "B032", "Name" : "Ft. Greene Park", "Location" : "DeKalb & S. Portland Aves.", "Phone" : "(718) 722-3218", "Courts" : 6, "Indoor_Outdoor" : "Outdoor", "Tennis_Type" : "Hard", "Accessible" : "N", "lat" : 40.6906, "lon" : -73.9757 }
{ "_id" : { "$oid" : "52e5f09e8f3d99e1046abcca" }, "Prop_ID" : "B372", "Name" : "Friends Field", "Location" : "Ave. L & East 4th St.", "Phone" : "(718) 965-6502", "Courts" : 2, "Indoor_Outdoor" : "Outdoor", "Tennis_Type" : "Hard", "Accessible" : "Y", "lat" : 40.6184, "lon" : -73.9722 }
{ "_id" : { "$oid" : "52e5f09e8f3d99e1046abccb" }, "Prop_ID" : "B294", "Name" : "Jackie Robinson", "Location" : "Malcolm X. Blvd. & Chauncey St.", "Phone" : "(718) 493-7612", "Courts" : 4, "Indoor_Outdoor" : "Outdoor", "Tennis_Type" : "Hard", "Accessible" : "N", "lat" : 40.6803, "lon" : -73.9278 }
{ "_id" : { "$oid" : "52e5f09e8f3d99e1046abccc" }, "Prop_ID" : "B210W", "Name" : "J.J. Carty", "Location" : "95 Street & Fort Hamilton Pkwy.", "Phone" : "(718) 439-4296", "Courts" : 10, "Indoor_Outdoor" : "Outdoor", "Tennis_Type" : "Hard", "Accessible" : "N", "Info" : "Lessons Offered", "lat" : 40.6115, "lon" : -74.0316 }
{ "_id" : { "$oid" : "52e5f09e8f3d99e1046abccd" }, "Prop_ID" : "B166D", "Name" : "Joseph T. McGuire Park", "Location" : "Avenue W and Bergen", "Courts" : 3, "Indoor_Outdoor" : "Outdoor", "Tennis_Type" : "Hard", "Accessible" : "Y", "lat" : 40.62, "lon" : -73.89870000000001 }
{ "_id" : { "$oid" : "52e5f09e8f3d99e1046abcce" }, "Prop_ID" : "B129", "Name" : "Kaiser Playground", "Location" : "Neptune Ave. & W. 25th St.", "Phone" : "(718) 946-1350", "Courts" : 12, "Indoor_Outdoor" : "Outdoor", "Tennis_Type" : "Hard", "Accessible" : "Y", "lat" : 40.5785, "lon" : -73.99460000000001 }
{ "_id" : { "$oid" : "52e5f09e8f3d99e1046abccf" }, "Prop_ID" : "B157", "Name" : "Kelly Playground", "Location" : "Ave. S & E.14th St.", "Phone" : "(718) 946-1373", "Courts" : 7, "Indoor_Outdoor" : "Outdoor", "Tennis_Type" : "null", "Accessible" : "N" }
{ "_id" : { "$oid" : "52e5f09e8f3d99e1046abcd0" }, "Prop_ID" : "B052", "Name" : "Leif Ericson Park", "Location" : "8th Ave. & 66th St.", "Phone" : "(718) 259-4016", "Courts" : 9, "Indoor_Outdoor" : "Outdoor", "Tennis_Type" : "Hard", "Accessible" : "N", "Info" : "Lessons Offered", "lat" : 40.6319, "lon" : -74.0137 }
{ "_id" : { "$oid" : "52e5f09e8f3d99e1046abcd1" }, "Prop_ID" : "B054", "Name" : "Lincoln Terrace Park", "Location" : "Buffalo & Rochester Aves.", "Phone" : "(718) 804-7077", "Courts" : 11, "Indoor_Outdoor" : "Outdoor", "Tennis_Type" : "Hard", "Accessible" : "N", "Info" : "Lessons Offered", "lat" : 40.6665, "lon" : -73.9255 }
{ "_id" : { "$oid" : "52e5f09e8f3d99e1046abcd2" }, "Prop_ID" : "B214", "Name" : "Linden Playground", "Location" : "Linden Blvd. & Vermont St.", "Phone" : "(718) 927-2059", "Courts" : 8, "Indoor_Outdoor" : "Outdoor", "Tennis_Type" : "Hard", "Accessible" : "N", "lat" : 40.6584, "lon" : -73.887 }
{ "_id" : { "$oid" : "52e5f09e8f3d99e1046abcd3" }, "Prop_ID" : "B251", "Name" : "Manhattan Beach", "Location" : "Oriental Blvd.", "Phone" : "(718) 946-1373", "Courts" : 6, "Indoor_Outdoor" : "Outdoor", "Tennis_Type" : "Hard", "Accessible" : "Y", "lat" : 40.5777, "lon" : -73.93989999999999 }
{ "_id" : { "$oid" : "52e5f09e8f3d99e1046abcd4" }, "Prop_ID" : "B057", "Name" : "Marine Park", "Location" : "Fillmore Ave. & Stuart St.", "Phone" : "(718) 376-1675", "Courts" : 15, "Indoor_Outdoor" : "Outdoor", "Tennis_Type" : "Hard", "Accessible" : "Y", "lat" : 40.6079, "lon" : -73.935 }
{ "_id" : { "$oid" : "52e5f09e8f3d99e1046abcd5" }, "Prop_ID" : "B058", "Name" : "McCarren Park", "Location" : "North 13th Street Between Bedford and Berry", "Courts" : 8, "Indoor_Outdoor" : "Outdoor", "Tennis_Type" : "Hard", "Accessible" : "N", "Info" : "Lessons Offered. Includes 2 half-size courts for children.", "lat" : 40.7218, "lon" : -73.9547 }
{ "_id" : { "$oid" : "52e5f09e8f3d99e1046abcd6" }, "Prop_ID" : "B244", "Name" : "McDonald Avenue Playground", "Location" : "McDonald Ave. & Ave. S", "Phone" : "(718) 946-1373", "Courts" : 7, "Indoor_Outdoor" : "Outdoor", "Tennis_Type" : "Hard", "Accessible" : "N", "lat" : 40.6, "lon" : -73.9722 }
{ "_id" : { "$oid" : "52e5f09e8f3d99e1046abcd7" }, "Prop_ID" : "B060", "Name" : "McKinley Park", "Location" : "7th Ave. & 75th St.", "Phone" : "(718) 259-4016", "Courts" : 8, "Indoor_Outdoor" : "Outdoor", "Tennis_Type" : "Hard", "Accessible" : "Y", "Info" : "Lessons Offered" }
{ "_id" : { "$oid" : "52e5f09e8f3d99e1046abcd8" }, "Prop_ID" : "B050", "Name" : "One Van Voorhees Park", "Location" : "Pacific, Congress and Hicks Streets", "Phone" : "(718) 722-3213", "Courts" : 2, "Indoor_Outdoor" : "Outdoor", "Tennis_Type" : "Hard", "Accessible" : "N", "lat" : 40.6898, "lon" : -74.0001 }
{ "_id" : { "$oid" : "52e5f09e8f3d99e1046abcd9" }, "Prop_ID" : "B073", "Name" : "Prospect Park Tennis Center", "Location" : "Parkside Ave at the Parade Ground", "Phone" : "(718) 436-2500", "Courts" : 11, "Indoor_Outdoor" : "Outdoor", "Tennis_Type" : "Clay", "Accessible" : "N", "Info" : "9 clay courts; 2 har-tru courts. Lessons, leagues, & indoor tennis also available.  For more information, visit the Prospect Park Alliance tennis page.", "lat" : 40.6513, "lon" : -73.97 }
{ "_id" : { "$oid" : "52e5f09e8f3d99e1046abcda" }, "Prop_ID" : "B082", "Name" : "Shore Road Playground", "Location" : "Shore Rd. & 95th St.", "Phone" : "(718) 259-4016", "Courts" : 4, "Indoor_Outdoor" : "Outdoor", "Tennis_Type" : "Hard", "Accessible" : "N", "lat" : 40.6125, "lon" : -74.03700000000001 }
{ "_id" : { "$oid" : "52e5f09e8f3d99e1046abcdb" }, "Prop_ID" : "M010", "Name" : "Central Park", "Location" : "93d St. near West Drive", "Phone" : "(212) 280-0205", "Courts" : 4, "Indoor_Outdoor" : "Outdoor", "Tennis_Type" : "Hard", "Accessible" : "N", "Info" : "Lessons Offered" }
{ "_id" : { "$oid" : "52e5f09e8f3d99e1046abcdc" }, "Prop_ID" : "M010", "Name" : "Central Park", "Location" : "93d St. near West Drive", "Phone" : "(212) 280-0205", "Courts" : 26, "Indoor_Outdoor" : "Outdoor", "Tennis_Type" : "Fast Dry", "Accessible" : "N", "Info" : "Lessons Offered" }
{ "_id" : { "$oid" : "52e5f09e8f3d99e1046abcdd" }, "Prop_ID" : "M144", "Name" : "Brian Watkins Tennis Center", "Location" : "At Houston St. (walk east over FDR Drive)", "Phone" : "(212) 529-7185", "Courts" : 12, "Indoor_Outdoor" : "Outdoor", "Tennis_Type" : "Hard", "Accessible" : "N", "lat" : 40.7156, "lon" : -73.97499999999999 }
{ "_id" : { "$oid" : "52e5f09e8f3d99e1046abcde" }, "Prop_ID" : "M028", "Name" : "Fort Washington Park", "Location" : "Hudson River at 170th St.", "Phone" : "(212) 304-2322", "Courts" : 10, "Indoor_Outdoor" : "Outdoor", "Tennis_Type" : "Hard", "Accessible" : "N", "Info" : "Lessons Offered", "lat" : 40.8488, "lon" : -73.9462 }
{ "_id" : { "$oid" : "52e5f09e8f3d99e1046abcdf" }, "Prop_ID" : "M159", "Name" : "Frederick Johnson Playground", "Location" : "151st St. east of 7th Ave.", "Phone" : "(212) 234-9609", "Courts" : 8, "Indoor_Outdoor" : "Outdoor", "Tennis_Type" : "Hard", "Accessible" : "N", "Info" : "Lessons Offered", "lat" : 40.825, "lon" : -73.93559999999999 }
{ "_id" : { "$oid" : "52e5f09e8f3d99e1046abce0" }, "Prop_ID" : "M042", "Name" : "Inwood Hill Park", "Location" : "207th St. and Seaman Ave.", "Phone" : "(212) 304-2381", "Courts" : 9, "Indoor_Outdoor" : "Outdoor", "Tennis_Type" : "Hard", "Accessible" : "Y", "Info" : "Lessons Offered", "lat" : 40.8697, "lon" : -73.9217 }
{ "_id" : { "$oid" : "52e5f09e8f3d99e1046abce1" }, "Prop_ID" : "M071", "Name" : "Riverside Park", "Location" : "Riverside Drive and W. 96th St.", "Phone" : "(212) 978-0277", "Courts" : 10, "Indoor_Outdoor" : "Outdoor", "Tennis_Type" : "Clay", "Accessible" : "N" }
{ "_id" : { "$oid" : "52e5f09e8f3d99e1046abce2" }, "Prop_ID" : "M071", "Name" : "Riverside Park", "Location" : "Riverside Drive and W. 119th St.", "Phone" : "(212) 978-0277", "Courts" : 10, "Indoor_Outdoor" : "Outdoor", "Tennis_Type" : "Hard", "Accessible" : "Y", "Info" : "Lessons Offered" }
{ "_id" : { "$oid" : "52e5f09e8f3d99e1046abce3" }, "Prop_ID" : "Q001", "Name" : "Alley Pond Park", "Location" : "Union Turnpike, Grand Central Parkway & Winchester Blvd.", "Phone" : "(718) 264-2600", "Courts" : 16, "Indoor_Outdoor" : "Outdoor", "Tennis_Type" : "Hard", "Accessible" : "N", "Info" : "Lessons Offered", "lat" : 40.7389, "lon" : -73.7379 }
{ "_id" : { "$oid" : "52e5f09e8f3d99e1046abce4" }, "Prop_ID" : "Q004", "Name" : "Astoria Park", "Location" : "21st St. & Hoyt Ave.", "Phone" : "(718) 626-8622", "Courts" : 14, "Indoor_Outdoor" : "Outdoor", "Tennis_Type" : "Hard", "Accessible" : "N", "Info" : "Lessons Offered", "lat" : 40.7756, "lon" : -73.9243 }
{ "_id" : { "$oid" : "52e5f09e8f3d99e1046abce5" }, "Prop_ID" : "Q005", "Name" : "Baisley Park", "Location" : "155th St. & 118th Ave.", "Phone" : "(718) 520-5314", "Courts" : 4, "Indoor_Outdoor" : "Outdoor", "Tennis_Type" : "Hard", "Accessible" : "N", "lat" : 40.6808, "lon" : -73.7872 }
{ "_id" : { "$oid" : "52e5f09e8f3d99e1046abce6" }, "Prop_ID" : "Q005", "Name" : "Baisley South", "Location" : "N. Conduit Ave. & 150th St.", "Phone" : "(718) 520-5314", "Courts" : 4, "Indoor_Outdoor" : "Outdoor", "Tennis_Type" : "Hard", "Accessible" : "N", "lat" : 40.6696, "lon" : -73.7884 }
{ "_id" : { "$oid" : "52e5f09e8f3d99e1046abce7" }, "Prop_ID" : "Q460", "Name" : "Broad Channel Park", "Location" : "Crossbay Blvd. and E. 16-E. 18 Rds.", "Phone" : "(718) 318-4000", "Courts" : 2, "Indoor_Outdoor" : "Outdoor", "Tennis_Type" : "Hard", "Accessible" : "N", "lat" : 40.6005, "lon" : -73.81959999999999 }
{ "_id" : { "$oid" : "52e5f09e8f3d99e1046abce8" }, "Prop_ID" : "Q008", "Name" : "Brookville Park", "Location" : "Brookville Blvd. & Southern Pkwy.", "Phone" : "(718) 978-5702", "Courts" : 6, "Indoor_Outdoor" : "Outdoor", "Tennis_Type" : "Hard", "Accessible" : "N", "Info" : "Lessons Offered", "lat" : 40.6614, "lon" : -73.74420000000001 }
{ "_id" : { "$oid" : "52e5f09e8f3d99e1046abce9" }, "Prop_ID" : "Q012", "Name" : "Crocheron Park", "Location" : "215th Place & 33rd Ave.", "Phone" : "(718) 225-2620", "Courts" : 10, "Indoor_Outdoor" : "Outdoor", "Tennis_Type" : "Hard", "Accessible" : "Y", "Info" : "Lessons Offered" }
{ "_id" : { "$oid" : "52e5f09e8f3d99e1046abcea" }, "Prop_ID" : "Q021", "Name" : "Cunningham Park", "Location" : "Union Tpk. & 193rd St.", "Phone" : "(718) 740-6800", "Courts" : 20, "Indoor_Outdoor" : "Outdoor", "Tennis_Type" : "Hard", "Accessible" : "N", "Info" : "Lessons Offered" }
{ "_id" : { "$oid" : "52e5f09e8f3d99e1046abceb" }, "Prop_ID" : "Q121", "Name" : "Det. Keith L. Williams Park", "Location" : "Liberty Ave. & 173rd St.", "Phone" : "(718) 520-6912", "Courts" : 10, "Indoor_Outdoor" : "Outdoor", "Tennis_Type" : "Hard", "Accessible" : "Y", "lat" : 40.7035, "lon" : -73.78489999999999 }
{ "_id" : { "$oid" : "52e5f09e8f3d99e1046abcec" }, "Prop_ID" : "Q086", "Name" : "Flushing Fields Memorial", "Location" : "149th St. & 25th Ave.", "Phone" : "(718) 461-3695", "Courts" : 8, "Indoor_Outdoor" : "Outdoor", "Tennis_Type" : "Hard", "Accessible" : "N" }
{ "_id" : { "$oid" : "52e5f09e8f3d99e1046abced" }, "Prop_ID" : "Q015", "Name" : "Forest Park", "Location" : "Park Lane South & 89th St.", "Phone" : "(718) 846-4946", "Courts" : 14, "Indoor_Outdoor" : "Outdoor", "Tennis_Type" : "Hard", "Accessible" : "Y", "lat" : 40.6976, "lon" : -73.8557 }
{ "_id" : { "$oid" : "52e5f09e8f3d99e1046abcee" }, "Prop_ID" : "Q020", "Name" : "Highland Park- Lower Playground", "Location" : "Elton St. & Jamaica Ave.", "Phone" : "(718) 235-4378", "Courts" : 18, "Indoor_Outdoor" : "Outdoor", "Tennis_Type" : "Hard", "Accessible" : "N", "Info" : "10 full courts, 8 36-foot youth courts.", "lat" : 40.6836, "lon" : -73.8884 }
{ "_id" : { "$oid" : "52e5f09e8f3d99e1046abcef" }, "Prop_ID" : "Q102", "Name" : "Juniper Valley Park", "Location" : "62nd Ave. & 80th St.", "Phone" : "(718) 326-2877", "Courts" : 8, "Indoor_Outdoor" : "Outdoor", "Tennis_Type" : "Hard", "Accessible" : "N", "Info" : "Lessons Offered", "lat" : 40.7204, "lon" : -73.876 }
{ "_id" : { "$oid" : "52e5f09e8f3d99e1046abcf0" }, "Prop_ID" : "Q024", "Name" : "Kissena Park", "Location" : "Rose & Oak Aves.", "Phone" : "(718) 359-1297", "Courts" : 4, "Indoor_Outdoor" : "Outdoor", "Tennis_Type" : "Hard", "Accessible" : "Y", "Info" : "Lessons Offered" }
{ "_id" : { "$oid" : "52e5f09e8f3d99e1046abcf1" }, "Prop_ID" : "Q024", "Name" : "Kissena Park", "Location" : "Rose & Oak Aves.", "Phone" : "(718) 359-1297", "Courts" : 8, "Indoor_Outdoor" : "Outdoor", "Tennis_Type" : "Hartro", "Accessible" : "Y", "Info" : "Lessons Offered" }
{ "_id" : { "$oid" : "52e5f09e8f3d99e1046abcf2" }, "Prop_ID" : "Q369", "Name" : "Louis Pasteur Park", "Location" : "52 Ave. & Marathon Pkwy.", "Courts" : 2, "Indoor_Outdoor" : "Outdoor", "Tennis_Type" : "Hard", "Accessible" : "N", "lat" : 40.7617, "lon" : -73.735 }
{ "_id" : { "$oid" : "52e5f09e8f3d99e1046abcf3" }, "Prop_ID" : "Q007", "Name" : "Michaelis Bayswater Park", "Location" : "32nd St. & Dickens Ave.", "Phone" : "(718) 318-4020", "Courts" : 6, "Indoor_Outdoor" : "Outdoor", "Tennis_Type" : "Hard", "Accessible" : "N", "lat" : 40.5986, "lon" : -73.7683 }
{ "_id" : { "$oid" : "52e5f09e8f3d99e1046abcf4" }, "Prop_ID" : "Q131", "Name" : "Maurice Park", "Location" : "Maurice Ave., LIE Service Rd. Westbound", "Phone" : "(718) 326-2877", "Courts" : 2, "Indoor_Outdoor" : "Outdoor", "Tennis_Type" : "Hard", "Accessible" : "N", "lat" : 40.7274, "lon" : -73.904 }
{ "_id" : { "$oid" : "52e5f09e8f3d99e1046abcf5" }, "Prop_ID" : "Q092", "Name" : "Police Officer Edward Byrne Park", "Location" : "North Conduit Ave. & 134-135 Street", "Courts" : 4, "Indoor_Outdoor" : "Outdoor", "Tennis_Type" : "Hard", "Accessible" : "N", "lat" : 40.6672, "lon" : -73.80710000000001 }
{ "_id" : { "$oid" : "52e5f09e8f3d99e1046abcf6" }, "Prop_ID" : "Q371", "Name" : "Rockaway Community Park", "Location" : "Alamdea Ave. btwn B51 & B56", "Phone" : "(718) 318-4000", "Courts" : 3, "Indoor_Outdoor" : "Outdoor", "Tennis_Type" : "Hard", "Accessible" : "N", "lat" : 40.5985, "lon" : -73.7835 }
{ "_id" : { "$oid" : "52e5f09e8f3d99e1046abcf7" }, "Prop_ID" : "Q448", "Name" : "Roy Wilkins Park", "Location" : "Merrick Blvd. & 119 Ave.", "Phone" : "(718) 276-8690", "Courts" : 4, "Indoor_Outdoor" : "Outdoor", "Tennis_Type" : "Hard", "Accessible" : "N", "lat" : 40.686, "lon" : -73.77 }
{ "_id" : { "$oid" : "52e5f09e8f3d99e1046abcf8" }, "Prop_ID" : "Q107", "Name" : "Springfield Park", "Location" : "147 Ave. & Springfield Ave.", "Phone" : "(718) 723-6156", "Courts" : 2, "Indoor_Outdoor" : "Outdoor", "Tennis_Type" : "Hard", "Accessible" : "N", "lat" : 40.6598, "lon" : -73.7623 }
{ "_id" : { "$oid" : "52e5f09e8f3d99e1046abcf9" }, "Prop_ID" : "Q051", "Name" : "St. Albans Park", "Location" : "Merrick Blvd. & 172nd St.", "Phone" : "(718) 478-1364", "Courts" : 2, "Indoor_Outdoor" : "Outdoor", "Tennis_Type" : "Hard", "Accessible" : "N", "lat" : 40.6939, "lon" : -73.7801 }
{ "_id" : { "$oid" : "52e5f09e8f3d99e1046abcfa" }, "Prop_ID" : "Q413", "Name" : "Victor Hanson Community Center (Rochdale Park)", "Location" : "Guy Brewer Blvd. & 134th Ave.", "Phone" : "(718) 978-1536", "Courts" : 6, "Indoor_Outdoor" : "Outdoor", "Tennis_Type" : "Hard", "Accessible" : "N", "lat" : 40.6744, "lon" : -73.7739 }
{ "_id" : { "$oid" : "52e5f09e8f3d99e1046abcfb" }, "Prop_ID" : "Q303", "Name" : "Travers Park", "Location" : "77 & 78 Sts. at 34 Ave. & Northern Blvd", "Courts" : 1, "Indoor_Outdoor" : "Outdoor", "Tennis_Type" : "Hard", "Accessible" : "N", "lat" : 40.7539, "lon" : -73.8891 }
{ "_id" : { "$oid" : "52e5f09e8f3d99e1046abcfc" }, "Prop_ID" : "Q373", "Name" : "East Elmhurst (PS 127)", "Location" : "25 Ave. & 98 St.-100 St.", "Courts" : 1, "Indoor_Outdoor" : "Outdoor", "Tennis_Type" : "Hard", "Accessible" : "N", "lat" : 40.7651, "lon" : -73.8707 }
{ "_id" : { "$oid" : "52e5f09e8f3d99e1046abcfd" }, "Prop_ID" : "Q099", "Name" : "Flushing Meadows Corona Park", "Location" : "Flushing Meadows Corona Park", "Phone" : "(718) 760-6999", "Courts" : 11, "Indoor_Outdoor" : "Outdoor", "Tennis_Type" : "Hard", "Accessible" : "Y", "Info" : "Lessons offered" }
{ "_id" : { "$oid" : "52e5f09e8f3d99e1046abcfe" }, "Prop_ID" : "R123", "Name" : "Skyline Park", "Location" : "Arnold St. & Prospect Ave.", "Phone" : "(718) 667-3545", "Courts" : 2, "Indoor_Outdoor" : "Outdoor", "Tennis_Type" : "All Weather", "Accessible" : "N", "lat" : 40.6396, "lon" : -74.0898 }
{ "_id" : { "$oid" : "52e5f09e8f3d99e1046abcff" }, "Prop_ID" : "R022", "Name" : "Silver Lake Park", "Location" : "Hart Blvd. & Revere St.", "Phone" : "(718) 667-3545", "Courts" : 4, "Indoor_Outdoor" : "Outdoor", "Tennis_Type" : "All Weather", "Accessible" : "N", "lat" : 40.6278, "lon" : -74.0996 }
{ "_id" : { "$oid" : "52e5f09e8f3d99e1046abd00" }, "Prop_ID" : "R015", "Name" : "Walker Park", "Location" : "Bard Ave. & Delafield Place", "Phone" : "(718) 667-3545", "Courts" : 6, "Indoor_Outdoor" : "Outdoor", "Tennis_Type" : "All Weather", "Accessible" : "N", "lat" : 40.6433, "lon" : -74.1087 }
{ "_id" : { "$oid" : "52e5f09e8f3d99e1046abd01" }, "Prop_ID" : "R030", "Name" : "Willowbrook Park", "Location" : "Richmond Ave. & Eton Place", "Phone" : "(718) 667-3545", "Courts" : 6, "Indoor_Outdoor" : "Outdoor", "Tennis_Type" : "All Weather", "Accessible" : "Y", "lat" : 40.6038, "lon" : -74.1613 }
{ "_id" : { "$oid" : "52e5f09e8f3d99e1046abd02" }, "Prop_ID" : "R031", "Name" : "Wolfes Pond Park", "Location" : "Cornelia Ave., off of Highland Blvd.", "Phone" : "(718) 667-3545", "Courts" : 2, "Indoor_Outdoor" : "Outdoor", "Tennis_Type" : "All Weather", "Accessible" : "Y", "lat" : 40.5194, "lon" : -74.18680000000001 }
{ "_id" : { "$oid" : "52e5f09e8f3d99e1046abd03" }, "Prop_ID" : "M104", "Name" : "Sportime at Randall's Island", "Location" : "Randall's Island Park", "Phone" : "(212) 427-6150", "Courts" : 20, "Indoor_Outdoor" : "Indoor", "Tennis_Type" : "Hard", "Accessible" : "N", "Info" : "5 indoor hard courts, 5 indoor/outdoor hard courts, and 10 indoor/outdoor clay courts. 10 of the 20 courts are available to permit holders during the outdoor permit season (May through the day before Columbus Day). Adult and junior instructional, competitive, and recreational tennis programs offered. For more information, visit the Sportime Randall's Island tennis page.", "lat" : 40.7943, "lon" : -73.9198 }
{ "_id" : { "$oid" : "52e5f09e8f3d99e1046abd04" }, "Prop_ID" : "Q001A", "Name" : "Alley Pond Tennis Club", "Location" : "Queens Village 79-20 Winchester Boulevard", "Phone" : "(718) 264-2600", "Courts" : 11, "Indoor_Outdoor" : "Indoor", "Tennis_Type" : "Hard", "Accessible" : "N", "Info" : "Lessons offered. Courts will not be available for permit from October 15 through April 30. Please call for more information.", "lat" : 40.7394, "lon" : 73.73609999999999 }
{ "_id" : { "$oid" : "52e5f09e8f3d99e1046abd05" }, "Prop_ID" : "Q021", "Name" : "Cunningham Tennis Center", "Location" : "Fresh Meadows 196-00 Union Turnpike", "Phone" : "(718) 740-6800", "Courts" : 5, "Indoor_Outdoor" : "Indoor", "Tennis_Type" : "Hard", "Accessible" : "N", "Info" : "Lessons offered. Courts will not be available during the summer. Please call for more information." }
{ "_id" : { "$oid" : "52e5f09e8f3d99e1046abd06" }, "Prop_ID" : "R129", "Name" : "Greenbelt Recreation Center", "Location" : "501 Brielle Avenue", "Phone" : "(718) 667-3545", "Courts" : 2, "Indoor_Outdoor" : "Outdoor", "Tennis_Type" : "Hard", "Accessible" : "Y" }
{ "_id" : { "$oid" : "52e5f09e8f3d99e1046abd07" }, "Prop_ID" : "X344", "Name" : "Mill Pond Park", "Location" : "Gateway Center Boulevard (Exterior Street) and East 150th Street", "Phone" : "(718) 665-4684", "Courts" : 16, "Indoor_Outdoor" : "Outdoor", "Tennis_Type" : "Hard", "Accessible" : "Y" }
{ "_id" : { "$oid" : "52e5f09e8f3d99e1046abd08" }, "Prop_ID" : "B407", "Name" : "South Oxford Park", "Location" : "Cumberland Street between Atlantic Commons and Atlantic Avenue", "Courts" : 2, "Indoor_Outdoor" : "Outdoor", "Tennis_Type" : "Hard", "lat" : 40.6836, "lon" : -73.9722 }
{ "_id" : { "$oid" : "52e5f09e8f3d99e1046abd09" }, "Prop_ID" : "X210", "Name" : "Governor Smith Playground", "Location" : "Morris Avenue between E. 151 and E. 153 Streets", "Courts" : 3, "Indoor_Outdoor" : "Outdoor", "Tennis_Type" : "Hard", "lat" : 40.8196, "lon" : -73.92019999999999 }
{ "_id" : { "$oid" : "52e5f09e8f3d99e1046abd0a" }, "Prop_ID" : "M308", "Name" : "Washington Market Park", "Location" : "Chambers St. & West St.", "Courts" : 1, "Indoor_Outdoor" : "Outdoor", "Tennis_Type" : "Hard", "lat" : 40.7171, "lon" : -74.0123 }
